$GPGGA,125511.104,6500.827,N,02527.749,E,1,12,1.0,0.0,M,0.0,M,,*6E
$GPGSA,A,3,01,02,03,04,05,06,07,08,09,10,11,12,1.0,1.0,1.0*30
$GPRMC,125511.104,A,6500.827,N,02527.749,E,485.8,290.6,151118,000.0,W*7B
$GPGGA,125512.104,6500.916,N,02527.510,E,1,12,1.0,0.0,M,0.0,M,,*60
$GPGSA,A,3,01,02,03,04,05,06,07,08,09,10,11,12,1.0,1.0,1.0*30
$GPRMC,125512.104,A,6500.916,N,02527.510,E,1226.6,269.5,151118,000.0,W*40
$GPGGA,125513.104,6500.909,N,02526.704,E,1,12,1.0,0.0,M,0.0,M,,*69
$GPGSA,A,3,01,02,03,04,05,06,07,08,09,10,11,12,1.0,1.0,1.0*30
$GPRMC,125513.104,A,6500.909,N,02526.704,E,1282.8,250.6,151118,000.0,W*40
$GPGGA,125514.104,6500.681,N,02526.055,E,1,12,1.0,0.0,M,0.0,M,,*62
$GPGSA,A,3,01,02,03,04,05,06,07,08,09,10,11,12,1.0,1.0,1.0*30
$GPRMC,125514.104,A,6500.681,N,02526.055,E,413.1,248.3,151118,000.0,W*71
$GPGGA,125515.104,6500.603,N,02525.857,E,1,12,1.0,0.0,M,0.0,M,,*60
$GPGSA,A,3,01,02,03,04,05,06,07,08,09,10,11,12,1.0,1.0,1.0*30
$GPRMC,125515.104,A,6500.603,N,02525.857,E,324.7,262.3,151118,000.0,W*7E
$GPGGA,125516.104,6500.576,N,02525.653,E,1,12,1.0,0.0,M,0.0,M,,*68
$GPGSA,A,3,01,02,03,04,05,06,07,08,09,10,11,12,1.0,1.0,1.0*30
$GPRMC,125516.104,A,6500.576,N,02525.653,E,1161.7,242.4,151118,000.0,W*41
$GPGGA,125517.104,6500.326,N,02525.172,E,1,12,1.0,0.0,M,0.0,M,,*6E
$GPGSA,A,3,01,02,03,04,05,06,07,08,09,10,11,12,1.0,1.0,1.0*30
$GPRMC,125517.104,A,6500.326,N,02525.172,E,219.5,177.6,151118,000.0,W*7F
$GPGGA,125518.104,6500.265,N,02525.174,E,1,12,1.0,0.0,M,0.0,M,,*61
$GPGSA,A,3,01,02,03,04,05,06,07,08,09,10,11,12,1.0,1.0,1.0*30
$GPRMC,125518.104,A,6500.265,N,02525.174,E,378.3,085.6,151118,000.0,W*7C
$GPGGA,125519.104,6500.283,N,02525.419,E,1,12,1.0,0.0,M,0.0,M,,*66
$GPGSA,A,3,01,02,03,04,05,06,07,08,09,10,11,12,1.0,1.0,1.0*30
$GPRMC,125519.104,A,6500.283,N,02525.419,E,430.7,069.7,151118,000.0,W*77
$GPGGA,125520.104,6500.362,N,02525.633,E,1,12,1.0,0.0,M,0.0,M,,*68
$GPGSA,A,3,01,02,03,04,05,06,07,08,09,10,11,12,1.0,1.0,1.0*30
$GPRMC,125520.104,A,6500.362,N,02525.633,E,382.6,065.7,151118,000.0,W*7A
$GPGGA,125521.104,6500.439,N,02525.805,E,1,12,1.0,0.0,M,0.0,M,,*6B
$GPGSA,A,3,01,02,03,04,05,06,07,08,09,10,11,12,1.0,1.0,1.0*30
$GPRMC,125521.104,A,6500.439,N,02525.805,E,881.8,068.5,151118,000.0,W*70
$GPGGA,125522.104,6500.605,N,02526.230,E,1,12,1.0,0.0,M,0.0,M,,*6A
$GPGSA,A,3,01,02,03,04,05,06,07,08,09,10,11,12,1.0,1.0,1.0*30
$GPRMC,125522.104,A,6500.605,N,02526.230,E,314.5,104.2,151118,000.0,W*77
$GPGGA,125523.104,6500.561,N,02526.408,E,1,12,1.0,0.0,M,0.0,M,,*67
$GPGSA,A,3,01,02,03,04,05,06,07,08,09,10,11,12,1.0,1.0,1.0*30
$GPRMC,125523.104,A,6500.561,N,02526.408,E,481.7,087.0,151118,000.0,W*7B
$GPGGA,125524.104,6500.577,N,02526.722,E,1,12,1.0,0.0,M,0.0,M,,*6C
$GPGSA,A,3,01,02,03,04,05,06,07,08,09,10,11,12,1.0,1.0,1.0*30
$GPRMC,125524.104,A,6500.577,N,02526.722,E,282.7,067.8,151118,000.0,W*73
$GPGGA,125525.104,6500.631,N,02526.856,E,1,12,1.0,0.0,M,0.0,M,,*60
$GPGSA,A,3,01,02,03,04,05,06,07,08,09,10,11,12,1.0,1.0,1.0*30
$GPRMC,125525.104,A,6500.631,N,02526.856,E,258.9,070.7,151118,000.0,W*7F
$GPGGA,125526.104,6500.677,N,02526.987,E,1,12,1.0,0.0,M,0.0,M,,*6C
$GPGSA,A,3,01,02,03,04,05,06,07,08,09,10,11,12,1.0,1.0,1.0*30
$GPRMC,125526.104,A,6500.677,N,02526.987,E,612.8,068.6,151118,000.0,W*70
$GPGGA,125527.104,6500.792,N,02527.283,E,1,12,1.0,0.0,M,0.0,M,,*69
$GPGSA,A,3,01,02,03,04,05,06,07,08,09,10,11,12,1.0,1.0,1.0*30
$GPRMC,125527.104,A,6500.792,N,02527.283,E,387.8,037.8,151118,000.0,W*78
$GPGGA,125528.104,6500.895,N,02527.363,E,1,12,1.0,0.0,M,0.0,M,,*61
$GPGSA,A,3,01,02,03,04,05,06,07,08,09,10,11,12,1.0,1.0,1.0*30
$GPRMC,125528.104,A,6500.895,N,02527.363,E,208.6,087.7,151118,000.0,W*7C
$GPGGA,125529.104,6500.900,N,02527.500,E,1,12,1.0,0.0,M,0.0,M,,*6E
$GPGSA,A,3,01,02,03,04,05,06,07,08,09,10,11,12,1.0,1.0,1.0*30
$GPRMC,125529.104,A,6500.900,N,02527.500,E,456.5,106.3,151118,000.0,W*71
$GPGGA,125530.104,6500.828,N,02527.747,E,1,12,1.0,0.0,M,0.0,M,,*6C
$GPGSA,A,3,01,02,03,04,05,06,07,08,09,10,11,12,1.0,1.0,1.0*30
$GPRMC,125530.104,A,6500.828,N,02527.747,E,456.5,106.3,151118,000.0,W*73
